{
  "offset" : 0,
  "rows": [
    { "_id" : { "$oid" : "4d8bb3d3be07bb4fdf09be2e" }, "search_field" : "district of columbia", "country" : "United States", "country_code" : "US", "region" : "District of Columbia", "region_code" : "USDC", "population" : 0, "geoindex" : { "lat" : 38.8964, "lon" : -77.0262 } } ,
    { "_id" : { "$oid" : "4d8bbbd2be07bb4f0c8ce32e" }, "search_field" : "adams morgan", "country" : "United States", "country_code" : "US", "city" : "adams morgan", "region" : "District of Columbia", "region_code" : "USDC", "population" : 0, "latitude" : "38.9213889", "longitude" : "-77.0425000", "geoindex" : { "lat" : 38.9213889, "lon" : -77.0425 } } ,
    { "_id" : { "$oid" : "4d8bbbd2be07bb4f0d8ce32e" }, "search_field" : "american university park", "country" : "United States", "country_code" : "US", "city" : "american university park", "region" : "District of Columbia", "region_code" : "USDC", "population" : 0, "latitude" : "38.9513889", "longitude" : "-77.0902778", "geoindex" : { "lat" : 38.9513889, "lon" : -77.0902778 } } ,
    { "_id" : { "$oid" : "4d8bbbd2be07bb4f0e8ce32e" }, "search_field" : "anacostia", "country" : "United States", "country_code" : "US", "city" : "anacostia", "region" : "District of Columbia", "region_code" : "USDC", "population" : 0, "latitude" : "38.8663889", "longitude" : "-76.9841667", "geoindex" : { "lat" : 38.8663889, "lon" : -76.9841667 } } ,
    { "_id" : { "$oid" : "4d8bbbd2be07bb4f0f8ce32e" }, "search_field" : "barnaby terrace", "country" : "United States", "country_code" : "US", "city" : "barnaby terrace", "region" : "District of Columbia", "region_code" : "USDC", "population" : 0, "latitude" : "38.8333333", "longitude" : "-76.9894444", "geoindex" : { "lat" : 38.8333333, "lon" : -76.9894444 } } ,
    { "_id" : { "$oid" : "4d8bbbd2be07bb4f108ce32e" }, "search_field" : "barnaby woods", "country" : "United States", "country_code" : "US", "city" : "barnaby woods", "region" : "District of Columbia", "region_code" : "USDC", "population" : 0, "latitude" : "38.9747222", "longitude" : "-77.0600000", "geoindex" : { "lat" : 38.9747222, "lon" : -77.06 } } ,
    { "_id" : { "$oid" : "4d8bbbd2be07bb4f118ce32e" }, "search_field" : "barry farms", "country" : "United States", "country_code" : "US", "city" : "barry farms", "region" : "District of Columbia", "region_code" : "USDC", "population" : 0, "latitude" : "38.8563889", "longitude" : "-76.9916667", "geoindex" : { "lat" : 38.8563889, "lon" : -76.9916667 } } ,
    { "_id" : { "$oid" : "4d8bbbd2be07bb4f128ce32e" }, "search_field" : "bellevue", "country" : "United States", "country_code" : "US", "city" : "bellevue", "region" : "District of Columbia", "region_code" : "USDC", "population" : 0, "latitude" : "38.8266667", "longitude" : "-77.0200000", "geoindex" : { "lat" : 38.8266667, "lon" : -77.02 } } ,
    { "_id" : { "$oid" : "4d8bbbd2be07bb4f138ce32e" }, "search_field" : "benning", "country" : "United States", "country_code" : "US", "city" : "benning", "region" : "District of Columbia", "region_code" : "USDC", "population" : 0, "latitude" : "38.8950000", "longitude" : "-76.9491667", "geoindex" : { "lat" : 38.895, "lon" : -76.94916670000001 } } ,
    { "_id" : { "$oid" : "4d8bbbd2be07bb4f148ce32e" }, "search_field" : "benning heights", "country" : "United States", "country_code" : "US", "city" : "benning heights", "region" : "District of Columbia", "region_code" : "USDC", "population" : 0, "latitude" : "38.8816667", "longitude" : "-76.9363889", "geoindex" : { "lat" : 38.8816667, "lon" : -76.9363889 } } ,
    { "_id" : { "$oid" : "4d8bbbd2be07bb4f158ce32e" }, "search_field" : "bloomingdale", "country" : "United States", "country_code" : "US", "city" : "bloomingdale", "region" : "District of Columbia", "region_code" : "USDC", "population" : 0, "latitude" : "38.9166667", "longitude" : "-77.0116667", "geoindex" : { "lat" : 38.9166667, "lon" : -77.01166670000001 } } ,
    { "_id" : { "$oid" : "4d8bbbd2be07bb4f168ce32e" }, "search_field" : "brentwood village", "country" : "United States", "country_code" : "US", "city" : "brentwood village", "region" : "District of Columbia", "region_code" : "USDC", "population" : 0, "latitude" : "38.9208333", "longitude" : "-76.9847222", "geoindex" : { "lat" : 38.9208333, "lon" : -76.98472219999999 } } ,
    { "_id" : { "$oid" : "4d8bbbd2be07bb4f178ce32e" }, "search_field" : "brightwood", "country" : "United States", "country_code" : "US", "city" : "brightwood", "region" : "District of Columbia", "region_code" : "USDC", "population" : 0, "latitude" : "38.9611111", "longitude" : "-77.0277778", "geoindex" : { "lat" : 38.9611111, "lon" : -77.0277778 } } ,
    { "_id" : { "$oid" : "4d8bbbd2be07bb4f188ce32e" }, "search_field" : "brightwood park", "country" : "United States", "country_code" : "US", "city" : "brightwood park", "region" : "District of Columbia", "region_code" : "USDC", "population" : 0, "latitude" : "38.9569444", "longitude" : "-77.0252778", "geoindex" : { "lat" : 38.9569444, "lon" : -77.0252778 } } ,
    { "_id" : { "$oid" : "4d8bbbd2be07bb4f198ce32e" }, "search_field" : "brookland", "country" : "United States", "country_code" : "US", "city" : "brookland", "region" : "District of Columbia", "region_code" : "USDC", "population" : 0, "latitude" : "38.9327778", "longitude" : "-76.9844444", "geoindex" : { "lat" : 38.9327778, "lon" : -76.9844444 } } ,
    { "_id" : { "$oid" : "4d8bbbd2be07bb4f1a8ce32e" }, "search_field" : "buena vista", "country" : "United States", "country_code" : "US", "city" : "buena vista", "region" : "District of Columbia", "region_code" : "USDC", "population" : 0, "latitude" : "38.8569444", "longitude" : "-76.9797222", "geoindex" : { "lat" : 38.8569444, "lon" : -76.9797222 } } ,
    { "_id" : { "$oid" : "4d8bbbd2be07bb4f1b8ce32e" }, "search_field" : "burleith", "country" : "United States", "country_code" : "US", "city" : "burleith", "region" : "District of Columbia", "region_code" : "USDC", "population" : 0, "latitude" : "38.9152778", "longitude" : "-77.0727778", "geoindex" : { "lat" : 38.9152778, "lon" : -77.0727778 } } ,
    { "_id" : { "$oid" : "4d8bbbd2be07bb4f1c8ce32e" }, "search_field" : "buzzard point", "country" : "United States", "country_code" : "US", "city" : "buzzard point", "region" : "District of Columbia", "region_code" : "USDC", "population" : 0, "latitude" : "38.8722222", "longitude" : "-77.0111111", "geoindex" : { "lat" : 38.8722222, "lon" : -77.01111109999999 } } ,
    { "_id" : { "$oid" : "4d8bbbd2be07bb4f1d8ce32e" }, "search_field" : "capitol hill", "country" : "United States", "country_code" : "US", "city" : "capitol hill", "region" : "District of Columbia", "region_code" : "USDC", "population" : 0, "latitude" : "38.8888889", "longitude" : "-77.0005556", "geoindex" : { "lat" : 38.8888889, "lon" : -77.0005556 } } ,
    { "_id" : { "$oid" : "4d8bbbd2be07bb4f1e8ce32e" }, "search_field" : "capitol view", "country" : "United States", "country_code" : "US", "city" : "capitol view", "region" : "District of Columbia", "region_code" : "USDC", "population" : 0, "latitude" : "38.8894444", "longitude" : "-76.9316667", "geoindex" : { "lat" : 38.8894444, "lon" : -76.93166669999999 } } ,
    { "_id" : { "$oid" : "4d8bbbd2be07bb4f1f8ce32e" }, "search_field" : "cathedral heights", "country" : "United States", "country_code" : "US", "city" : "cathedral heights", "region" : "District of Columbia", "region_code" : "USDC", "population" : 0, "latitude" : "38.9255556", "longitude" : "-77.0777778", "geoindex" : { "lat" : 38.9255556, "lon" : -77.07777780000001 } } ,
    { "_id" : { "$oid" : "4d8bbbd2be07bb4f208ce32e" }, "search_field" : "central northeast", "country" : "United States", "country_code" : "US", "city" : "central northeast", "region" : "District of Columbia", "region_code" : "USDC", "population" : 0, "latitude" : "38.8958333", "longitude" : "-76.9416667", "geoindex" : { "lat" : 38.8958333, "lon" : -76.9416667 } } ,
    { "_id" : { "$oid" : "4d8bbbd2be07bb4f218ce32e" }, "search_field" : "chevy chase", "country" : "United States", "country_code" : "US", "city" : "chevy chase", "region" : "District of Columbia", "region_code" : "USDC", "population" : 0, "latitude" : "38.9638889", "longitude" : "-77.0680556", "geoindex" : { "lat" : 38.9638889, "lon" : -77.06805559999999 } } ,
    { "_id" : { "$oid" : "4d8bbbd2be07bb4f228ce32e" }, "search_field" : "chevy chase heights", "country" : "United States", "country_code" : "US", "city" : "chevy chase heights", "region" : "District of Columbia", "region_code" : "USDC", "population" : 0, "latitude" : "38.9594444", "longitude" : "-77.0777778", "geoindex" : { "lat" : 38.9594444, "lon" : -77.07777780000001 } } ,
    { "_id" : { "$oid" : "4d8bbbd2be07bb4f238ce32e" }, "search_field" : "chillum station", "country" : "United States", "country_code" : "US", "city" : "chillum station", "region" : "District of Columbia", "region_code" : "USDC", "population" : 0, "latitude" : "38.9555556", "longitude" : "-77.0044444", "geoindex" : { "lat" : 38.9555556, "lon" : -77.0044444 } }
  ],
  "total_rows" : 25 ,
  "query" : { "region_code" : "USDC" } ,
  "millis" : 14
}
